[{"station_dep": "Jean-Jaquet", "station_arr": "Rue de la Conf\u00e9d\u00e9ration 2", "n_matin": 89, "n_soir": 93, "score": 89, "dep_lat": 46.2138681, "dep_lon": 6.1511388, "arr_lat": 46.2038067, "arr_lon": 6.1433116}, {"station_dep": "Seujet", "station_arr": "Place St-Gervais", "n_matin": 70, "n_soir": 68, "score": 68, "dep_lat": 46.2041192, "dep_lon": 6.1338794, "arr_lat": 46.2057147, "arr_lon": 6.1427931}, {"station_dep": "Augustins", "station_arr": "Gen\u00e8ve Cornavin", "n_matin": 67, "n_soir": 66, "score": 66, "dep_lat": 46.1911925, "dep_lon": 6.1443789, "arr_lat": 46.2093526, "arr_lon": 6.1425051}, {"station_dep": "Pr\u00e9 J\u00e9r\u00f4me", "station_arr": "Gen\u00e8ve Cornavin", "n_matin": 57, "n_soir": 55, "score": 55, "dep_lat": 46.1930898, "dep_lon": 6.1449177, "arr_lat": 46.2093526, "arr_lon": 6.1425051}, {"station_dep": "Gare Vernier Nord", "station_arr": "Givaudan", "n_matin": 89, "n_soir": 53, "score": 53, "dep_lat": 46.2209378, "dep_lon": 6.0940902, "arr_lat": 46.2071864, "arr_lon": 6.0787014}, {"station_dep": "Rue Gourgas", "station_arr": "Gen\u00e8ve Cornavin", "n_matin": 65, "n_soir": 50, "score": 50, "dep_lat": 46.1996679, "dep_lon": 6.1370686, "arr_lat": 46.2093526, "arr_lon": 6.1425051}, {"station_dep": "Rue des Bains 31", "station_arr": "Rue de la Navigation", "n_matin": 48, "n_soir": 69, "score": 48, "dep_lat": 46.198606, "dep_lon": 6.1371926, "arr_lat": 46.2115266, "arr_lon": 6.1495787}, {"station_dep": "Philosophes", "station_arr": "Ecole de M\u00e9decine 16", "n_matin": 42, "n_soir": 44, "score": 42, "dep_lat": 46.1969609, "dep_lon": 6.1452873, "arr_lat": 46.196533, "arr_lon": 6.137587}, {"station_dep": "Rue du Grand Bureau 21", "station_arr": "Place St-Gervais", "n_matin": 53, "n_soir": 41, "score": 41, "dep_lat": 46.1898914, "dep_lon": 6.1372298, "arr_lat": 46.2057147, "arr_lon": 6.1427931}, {"station_dep": "Gen\u00e8ve Cornavin", "station_arr": "Pharma 24", "n_matin": 75, "n_soir": 36, "score": 36, "dep_lat": 46.2093526, "dep_lon": 6.1425051, "arr_lat": 46.192095, "arr_lon": 6.1467022}, {"station_dep": "H\u00f4pital 1", "station_arr": "Ecole de Tivoli", "n_matin": 60, "n_soir": 31, "score": 31, "dep_lat": 46.1933165, "dep_lon": 6.1475439, "arr_lat": 46.1949565, "arr_lon": 6.1235895}, {"station_dep": "Mara\u00eechers 46", "station_arr": "Pont du Mont-Blanc", "n_matin": 67, "n_soir": 31, "score": 31, "dep_lat": 46.1974694, "dep_lon": 6.1383047, "arr_lat": 46.2069193, "arr_lon": 6.1473036}, {"station_dep": "Rousseau 5", "station_arr": "Baby-Plage", "n_matin": 54, "n_soir": 30, "score": 30, "dep_lat": 46.2068767, "dep_lon": 6.1441195, "arr_lat": 46.2080538, "arr_lon": 6.1634415}, {"station_dep": "Rue de la Navigation", "station_arr": "Place de la Fusterie", "n_matin": 30, "n_soir": 32, "score": 30, "dep_lat": 46.2115266, "dep_lon": 6.1495787, "arr_lat": 46.2041587, "arr_lon": 6.1460944}, {"station_dep": "Sainte-Clotilde", "station_arr": "Gen\u00e8ve Cornavin", "n_matin": 37, "n_soir": 30, "score": 30, "dep_lat": 46.2012334, "dep_lon": 6.1352668, "arr_lat": 46.2093526, "arr_lon": 6.1425051}, {"station_dep": "Plantamour 22", "station_arr": "Muzy 7", "n_matin": 35, "n_soir": 30, "score": 30, "dep_lat": 46.2104074, "dep_lon": 6.1498047, "arr_lat": 46.2039075, "arr_lon": 6.15607}, {"station_dep": "Montchoisy 21", "station_arr": "Gen\u00e8ve Cornavin", "n_matin": 29, "n_soir": 38, "score": 29, "dep_lat": 46.2036159, "dep_lon": 6.1608192, "arr_lat": 46.2093526, "arr_lon": 6.1425051}, {"station_dep": "Bd. d'Yvoy ", "station_arr": "Place St-Gervais", "n_matin": 29, "n_soir": 32, "score": 29, "dep_lat": 46.198303, "dep_lon": 6.1334751, "arr_lat": 46.2057147, "arr_lon": 6.1427931}, {"station_dep": "Vollandes 16", "station_arr": "Gen\u00e8ve Cornavin", "n_matin": 31, "n_soir": 27, "score": 27, "dep_lat": 46.205223, "dep_lon": 6.1602549, "arr_lat": 46.2093526, "arr_lon": 6.1425051}, {"station_dep": "Rue Blanche 9", "station_arr": "Gen\u00e8ve Cornavin", "n_matin": 27, "n_soir": 35, "score": 27, "dep_lat": 46.1889796, "dep_lon": 6.1441851, "arr_lat": 46.2093526, "arr_lon": 6.1425051}]